[
  {
    "name": "카페 무아",
    "region": "한성대입구",
    "address": "서울 성북구 한성대입구역 근처",
    "description": "조용한 분위기와 넓은 좌석이 있어 공부하거나 팀플하기 좋은 카페입니다. 콘센트가 있는 좌석이 많아 노트북 작업을 하기에도 좋습니다.",
    "latitude": 37.5884,
    "longitude": 127.0062,
    "imageName": "",
    "keywords": ["조용한공부", "팀플하기좋은", "노트북작업"]
  },
  {
    "name": "브라운 카페",
    "region": "한성대입구",
    "address": "서울 성북구 삼선교로 근처",
    "description": "따뜻한 조명과 우드톤 인테리어가 특징인 카페입니다. 창가 자리와 감성적인 분위기 때문에 사진 찍기 좋은 공간입니다.",
    "latitude": 37.5892,
    "longitude": 127.0084,
    "imageName": "",
    "keywords": ["감성인테리어", "사진찍기좋은", "창가자리"]
  },
  {
    "name": "카페 라운지",
    "region": "성신여대",
    "address": "서울 성북구 성신여대입구역 근처",
    "description": "친구들과 대화하기 좋은 편안한 분위기의 카페입니다. 음료 종류가 다양하고 좌석 간격이 넓어 여유롭게 머물기 좋습니다.",
    "latitude": 37.5927,
    "longitude": 127.0166,
    "imageName": "",
    "keywords": ["대화하기좋은", "넓은좌석", "음료다양"]
  },
  {
    "name": "카페 온도",
    "region": "성신여대",
    "address": "서울 성북구 동소문로 근처",
    "description": "케이크와 쿠키 같은 디저트 메뉴가 유명한 아늑한 카페입니다. 달달한 디저트를 좋아하는 사람에게 추천하기 좋은 공간입니다.",
    "latitude": 37.5915,
    "longitude": 127.0182,
    "imageName": "",
    "keywords": ["디저트맛집", "케이크추천", "아늑한분위기"]
  },
  {
    "name": "혜화 커피",
    "region": "혜화",
    "address": "서울 종로구 혜화역 근처",
    "description": "대학로 근처에 위치한 조용한 카페입니다. 공연을 기다리거나 혼자 시간을 보내기 좋은 차분한 분위기가 특징입니다.",
    "latitude": 37.5823,
    "longitude": 127.0019,
    "imageName": "",
    "keywords": ["혼자가기좋은", "공연전후", "차분한분위기"]
  },
  {
    "name": "대학로 카페",
    "region": "혜화",
    "address": "서울 종로구 대학로 근처",
    "description": "대학로 분위기를 느낄 수 있는 밝고 활기찬 카페입니다. 친구와 사진을 찍거나 공연 관람 후 방문하기 좋습니다.",
    "latitude": 37.5811,
    "longitude": 127.0028,
    "imageName": "",
    "keywords": ["대학로감성", "사진찍기좋은", "친구와방문"]
  },
  {
    "name": "종로 로스터리",
    "region": "종로",
    "address": "서울 종로구 종로3가역 근처",
    "description": "원두 향이 진한 로스터리 분위기의 카페입니다. 커피 맛을 중요하게 생각하는 사람에게 어울리는 공간입니다.",
    "latitude": 37.5704,
    "longitude": 126.9922,
    "imageName": "",
    "keywords": ["커피맛집", "로스터리", "진한원두"]
  },
  {
    "name": "홍대 스튜디오 카페",
    "region": "홍대",
    "address": "서울 마포구 홍대입구역 근처",
    "description": "감각적인 소품과 포토존이 있는 홍대 스타일의 카페입니다. 개성 있는 인테리어 덕분에 사진 찍기 좋은 공간입니다.",
    "latitude": 37.5563,
    "longitude": 126.9236,
    "imageName": "",
    "keywords": ["포토존", "감각적인공간", "홍대감성"]
  },
  {
    "name": "성수 빈티지 카페",
    "region": "성수",
    "address": "서울 성동구 성수역 근처",
    "description": "빈티지한 가구와 넓은 공간이 특징인 성수동 스타일의 카페입니다. 독특한 분위기 때문에 사진을 남기기 좋습니다.",
    "latitude": 37.5446,
    "longitude": 127.0559,
    "imageName": "",
    "keywords": ["빈티지감성", "넓은공간", "사진명소"]
  },
  {
    "name": "성수 브루잉 카페",
    "region": "성수",
    "address": "서울 성동구 서울숲 근처",
    "description": "색다른 디저트와 브루잉 커피를 함께 즐길 수 있는 카페입니다. 서울숲 산책 후 들르기 좋은 차분한 공간입니다.",
    "latitude": 37.5467,
    "longitude": 127.0435,
    "imageName": "",
    "keywords": ["색다른디저트", "브루잉커피", "서울숲근처"]
  }
]
